{
    "P.S. 001 The Bergen": {
        "Latitude": 40.6492212,
        "Longitude": -74.01170038740041,
        "Grade": "PK,0K,01,02,03,04,05,SE",
        "District": "15",
        "Borough": "Brooklyn",
        "School Website": "",
        "Domain_1": "",
        "Domain_2": "",
        "Domain_3": "",
        "Domain_4": ""
    },
    "Parkside Preparatory Academy": {
        "Latitude": 40.6564413,
        "Longitude": -73.9515241,
        "Grade": "06,07,08,SE",
        "District": "17",
        "Borough": "Brooklyn",
        "School Website": "https://parksideprepacademy.ss11.sharpschool.com/",
        "Domain_1": "parksideprepacademy.org",
        "Domain_2": "parksideprepacademy.com",
        "Domain_3": "parksideprepacademy.edu",
        "Domain_4": "parksideprepacademy.net"
    },
    "P.S. 003 The Bedford Village": {
        "Latitude": 40.68230255,
        "Longitude": -73.95554342370406,
        "Grade": "PK,0K,01,02,03,04,05,SE",
        "District": "13",
        "Borough": "Brooklyn",
        "School Website": "https://www.ps3brooklyn.org/",
        "Domain_1": "ps3brooklyn.org",
        "Domain_2": "ps3brooklyn.com",
        "Domain_3": "ps3brooklyn.edu",
        "Domain_4": "ps3brooklyn.net"
    },
    "P.S. K004": {
        "Latitude": 40.65831435,
        "Longitude": -73.87896336738052,
        "Grade": "PK,0K,01,02,03,04,05,SE",
        "District": "19",
        "Borough": "Brooklyn",
        "School Website": "https://www.p4brooklyn.org/",
        "Domain_1": "p4brooklyn.org",
        "Domain_2": "p4brooklyn.com",
        "Domain_3": "p4brooklyn.edu",
        "Domain_4": "p4brooklyn.net"
    },
    "P.S. 005 Dr. Ronald McNair": {
        "Latitude": 40.6855458,
        "Longitude": -73.9226032,
        "Grade": "PK,0K,01,02,03,04,05,SE",
        "District": "16",
        "Borough": "Brooklyn",
        "School Website": "",
        "Domain_1": "",
        "Domain_2": "",
        "Domain_3": "",
        "Domain_4": ""
    },
    "Norma Adams Clemons Academy": {
        "Latitude": 40.6488889,
        "Longitude": -73.9561111,
        "Grade": "PK,0K,01,02,03,04,05,SE",
        "District": "17",
        "Borough": "Brooklyn",
        "School Website": "",
        "Domain_1": "",
        "Domain_2": "",
        "Domain_3": "",
        "Domain_4": ""
    },
    "P.S. 007 Abraham Lincoln": {
        "Latitude": 40.68932475,
        "Longitude": -73.87313338576763,
        "Grade": "PK,0K,01,02,03,04,05,SE",
        "District": "19",
        "Borough": "Brooklyn",
        "School Website": "https://www.007k.org/",
        "Domain_1": "007k.org",
        "Domain_2": "007k.com",
        "Domain_3": "007k.edu",
        "Domain_4": "007k.net"
    },
    "The Emily Warren Roebling School": {
        "Latitude": 40.700800900000004,
        "Longitude": -73.99276080491771,
        "Grade": "0K,01,02,03,04,05,SE",
        "District": "13",
        "Borough": "Brooklyn",
        "School Website": "https://ps8brooklyn.org/",
        "Domain_1": "ps8brooklyn.org",
        "Domain_2": "ps8brooklyn.com",
        "Domain_3": "ps8brooklyn.edu",
        "Domain_4": "ps8brooklyn.net"
    },
    "Public School 9 The Sarah Smith Garnet School": {
        "Latitude": 40.67852215,
        "Longitude": -73.96635964364509,
        "Grade": "PK,0K,01,02,03,04,05,SE",
        "District": "13",
        "Borough": "Brooklyn",
        "School Website": "https://www.ps9brooklyn.org/",
        "Domain_1": "ps9brooklyn.org",
        "Domain_2": "ps9brooklyn.com",
        "Domain_3": "ps9brooklyn.edu",
        "Domain_4": "ps9brooklyn.net"
    },
    "Magnet School of Math, Science and Design Technology": {
        "Latitude": 40.6609074,
        "Longitude": -73.98594269794096,
        "Grade": "0K,01,02,03,04,05,SE",
        "District": "15",
        "Borough": "Brooklyn",
        "School Website": "https://www.ps10.org/",
        "Domain_1": "ps10.org",
        "Domain_2": "ps10.com",
        "Domain_3": "ps10.edu",
        "Domain_4": "ps10.net"
    },
    "P.S. 011 Purvis J. Behan": {
        "Latitude": 40.6855509,
        "Longitude": -73.96583810763471,
        "Grade": "PK,0K,01,02,03,04,05,SE",
        "District": "13",
        "Borough": "Brooklyn",
        "School Website": "https://www.ps11bk.org/",
        "Domain_1": "ps11bk.org",
        "Domain_2": "ps11bk.com",
        "Domain_3": "ps11bk.edu",
        "Domain_4": "ps11bk.net"
    },
    "Dr. Jacqueline Peek-Davis School": {
        "Latitude": 40.6728542,
        "Longitude": -73.9197565,
        "Grade": "PK,0K,01,02,03,04,05,SE",
        "District": "23",
        "Borough": "Brooklyn",
        "School Website": "",
        "Domain_1": "",
        "Domain_2": "",
        "Domain_3": "",
        "Domain_4": ""
    },
    "P.S. 013 Roberto Clemente": {
        "Latitude": 40.663846649999996,
        "Longitude": -73.89326336243326,
        "Grade": "PK,0K,01,02,03,04,05,SE",
        "District": "19",
        "Borough": "Brooklyn",
        "School Website": "",
        "Domain_1": "",
        "Domain_2": "",
        "Domain_3": "",
        "Domain_4": ""
    },
    "J.H.S. 014 Shell Bank": {
        "Latitude": 40.5934838,
        "Longitude": -73.9377956,
        "Grade": "06,07,08,SE",
        "District": "22",
        "Borough": "Brooklyn",
        "School Website": "https://www.shellbankjhs.org/",
        "Domain_1": "shellbankjhs.org",
        "Domain_2": "shellbankjhs.com",
        "Domain_3": "shellbankjhs.edu",
        "Domain_4": "shellbankjhs.net"
    },
    "P.S. 015 Patrick F. Daly": {
        "Latitude": 40.67693345,
        "Longitude": -74.01195231409375,
        "Grade": "PK,0K,01,02,03,04,05,SE",
        "District": "15",
        "Borough": "Brooklyn",
        "School Website": "https://www.ps15k.org/",
        "Domain_1": "ps15k.org",
        "Domain_2": "ps15k.com",
        "Domain_3": "ps15k.edu",
        "Domain_4": "ps15k.net"
    },
    "P.S. 016 Leonard Dunkly": {
        "Latitude": 40.706023200000004,
        "Longitude": -73.96182709405845,
        "Grade": "PK,0K,01,02,03,04,05,SE",
        "District": "14",
        "Borough": "Brooklyn",
        "School Website": "https://www.brooklynps16.com/",
        "Domain_1": "brooklynps16.org",
        "Domain_2": "brooklynps16.com",
        "Domain_3": "brooklynps16.edu",
        "Domain_4": "brooklynps16.net"
    },
    "P.S. 017 Henry D. Woodworth": {
        "Latitude": 40.7150849,
        "Longitude": -73.9569057,
        "Grade": "PK,0K,01,02,03,04,05,SE",
        "District": "14",
        "Borough": "Brooklyn",
        "School Website": "https://www.ps17kbrooklyn.org/",
        "Domain_1": "ps17kbrooklyn.org",
        "Domain_2": "ps17kbrooklyn.com",
        "Domain_3": "ps17kbrooklyn.edu",
        "Domain_4": "ps17kbrooklyn.net"
    },
    "P.S. 018 Edward Bush": {
        "Latitude": 40.71072,
        "Longitude": -73.9468991,
        "Grade": "PK,0K,01,02,03,04,05,SE",
        "District": "14",
        "Borough": "Brooklyn",
        "School Website": "",
        "Domain_1": "",
        "Domain_2": "",
        "Domain_3": "",
        "Domain_4": ""
    },
    "P.S. 020 Clinton Hill": {
        "Latitude": 40.6910261,
        "Longitude": -73.97109904546058,
        "Grade": "PK,0K,01,02,03,04,05,SE",
        "District": "13",
        "Borough": "Brooklyn",
        "School Website": "https://www.ps20.org/",
        "Domain_1": "ps20.org",
        "Domain_2": "ps20.com",
        "Domain_3": "ps20.edu",
        "Domain_4": "ps20.net"
    },
    "P.S. 021 Crispus Attucks": {
        "Latitude": 40.6803709,
        "Longitude": -73.92604270728506,
        "Grade": "PK,0K,01,02,03,04,05,SE",
        "District": "16",
        "Borough": "Brooklyn",
        "School Website": "https://www.cs21.school/",
        "Domain_1": "cs21.org",
        "Domain_2": "cs21.com",
        "Domain_3": "cs21.edu",
        "Domain_4": "cs21.net"
    },
    "P.S. 023 Carter G. Woodson": {
        "Latitude": 40.694414300000005,
        "Longitude": -73.94747129298835,
        "Grade": "PK,0K,01,02,03,04,05,SE",
        "District": "14",
        "Borough": "Brooklyn",
        "School Website": "",
        "Domain_1": "",
        "Domain_2": "",
        "Domain_3": "",
        "Domain_4": ""
    },
    "P.S. 024": {
        "Latitude": 40.65274685,
        "Longitude": -74.00445465251588,
        "Grade": "PK,0K,01,02,03,04,05,SE",
        "District": "15",
        "Borough": "Brooklyn",
        "School Website": "https://www.ps24brooklyn.com/",
        "Domain_1": "ps24brooklyn.org",
        "Domain_2": "ps24brooklyn.com",
        "Domain_3": "ps24brooklyn.edu",
        "Domain_4": "ps24brooklyn.net"
    },
    "P.S. 025 Eubie Blake School": {
        "Latitude": 40.6914563,
        "Longitude": -73.94091575049436,
        "Grade": "0K,01,02,03,04,05,SE",
        "District": "16",
        "Borough": "Brooklyn",
        "School Website": "https://www.ps25k.com/",
        "Domain_1": "ps25k.org",
        "Domain_2": "ps25k.com",
        "Domain_3": "ps25k.edu",
        "Domain_4": "ps25k.net"
    },
    "P.S. 026 Jesse Owens": {
        "Latitude": 40.692207571428575,
        "Longitude": -73.93035842857142,
        "Grade": "PK,0K,01,02,03,04,05,SE",
        "District": "16",
        "Borough": "Brooklyn",
        "School Website": "https://www.jesseowensps26.org/",
        "Domain_1": "jesseowensps26.org",
        "Domain_2": "jesseowensps26.com",
        "Domain_3": "jesseowensps26.edu",
        "Domain_4": "jesseowensps26.net"
    },
    "P.S. 029 John M. Harrigan": {
        "Latitude": 40.6868795,
        "Longitude": -73.99766793985955,
        "Grade": "PK,0K,01,02,03,04,05,SE",
        "District": "15",
        "Borough": "Brooklyn",
        "School Website": "https://www.ps29brooklyn.org/",
        "Domain_1": "ps29brooklyn.org",
        "Domain_2": "ps29brooklyn.com",
        "Domain_3": "ps29brooklyn.edu",
        "Domain_4": "ps29brooklyn.net"
    },
    "P.S./I.S. 30 Mary White Ovington": {
        "Latitude": 40.633624636363635,
        "Longitude": -74.0240376060606,
        "Grade": "0K,01,02,03,04,05,06,07,08,SE",
        "District": "20",
        "Borough": "Brooklyn",
        "School Website": "https://www.themarywhiteovingtonschool.org/",
        "Domain_1": "themarywhiteovingtonschool.org",
        "Domain_2": "themarywhiteovingtonschool.com",
        "Domain_3": "themarywhiteovingtonschool.edu",
        "Domain_4": "themarywhiteovingtonschool.net"
    },
    "P.S. 031 Samuel F. Dupont": {
        "Latitude": 40.726907100000005,
        "Longitude": -73.95399598250972,
        "Grade": "PK,0K,01,02,03,04,05,SE",
        "District": "14",
        "Borough": "Brooklyn",
        "School Website": "https://sites.google.com/schools.nyc.gov/ps31bk/home",
        "Domain_1": "",
        "Domain_2": "",
        "Domain_3": "",
        "Domain_4": ""
    },
    "P.S. 032 Samuel Mills Sprole": {
        "Latitude": 40.6804309,
        "Longitude": -73.9918421,
        "Grade": "PK,0K,01,02,03,04,05,SE",
        "District": "15",
        "Borough": "Brooklyn",
        "School Website": "https://www.ps32.org/",
        "Domain_1": "ps32.org",
        "Domain_2": "ps32.com",
        "Domain_3": "ps32.edu",
        "Domain_4": "ps32.net"
    },
    "P.S. 034 Oliver H. Perry": {
        "Latitude": 40.72639205,
        "Longitude": -73.9497692670706,
        "Grade": "PK,0K,01,02,03,04,05,SE",
        "District": "14",
        "Borough": "Brooklyn",
        "School Website": "http://www.ps34.org/",
        "Domain_1": "ps34.org",
        "Domain_2": "ps34.com",
        "Domain_3": "ps34.edu",
        "Domain_4": "ps34.net"
    },
    "M.S. 035 Stephen Decatur": {
        "Latitude": 40.6818194,
        "Longitude": -73.9355312,
        "Grade": "06,07,08,SE",
        "District": "16",
        "Borough": "Brooklyn",
        "School Website": "https://www.ms35k.org/",
        "Domain_1": "ms35k.org",
        "Domain_2": "ms35k.com",
        "Domain_3": "ms35k.edu",
        "Domain_4": "ms35k.net"
    },
    "P.S. 36": {
        "Latitude": 40.65942045,
        "Longitude": -73.88966618126568,
        "Grade": "PK,0K,01,02,03,04,05,06,07,08,09,10,11,12,SE",
        "District": "19",
        "Borough": "Brooklyn",
        "School Website": "",
        "Domain_1": "",
        "Domain_2": "",
        "Domain_3": "",
        "Domain_4": ""
    },
    "Beginning with Children Charter School II": {
        "Latitude": 40.703832899999995,
        "Longitude": -73.95378415472399,
        "Grade": "0K,01,02,03,04,05,06,07,08,09,10",
        "District": "14",
        "Borough": "Brooklyn",
        "School Website": "https://www.bwccs2.org/",
        "Domain_1": "bwccs2.org",
        "Domain_2": "bwccs2.com",
        "Domain_3": "bwccs2.edu",
        "Domain_4": "bwccs2.net"
    },
    "P.S. 038 The Pacific": {
        "Latitude": 40.68495485,
        "Longitude": -73.9828250726062,
        "Grade": "PK,0K,01,02,03,04,05,SE",
        "District": "15",
        "Borough": "Brooklyn",
        "School Website": "https://ps38bklyn.com/",
        "Domain_1": "ps38bklyn.org",
        "Domain_2": "ps38bklyn.com",
        "Domain_3": "ps38bklyn.edu",
        "Domain_4": "ps38bklyn.net"
    },
    "P.S. 039 Henry Bristow": {
        "Latitude": 40.668646949999996,
        "Longitude": -73.98290775516017,
        "Grade": "0K,01,02,03,04,05,SE",
        "District": "15",
        "Borough": "Brooklyn",
        "School Website": "https://www.ps39.org/",
        "Domain_1": "ps39.org",
        "Domain_2": "ps39.com",
        "Domain_3": "ps39.edu",
        "Domain_4": "ps39.net"
    },
    "P.S. 040 George W. Carver": {
        "Latitude": 40.680201100000005,
        "Longitude": -73.92147490376675,
        "Grade": "PK,0K,01,02,03,04,05,SE",
        "District": "16",
        "Borough": "Brooklyn",
        "School Website": "https://sites.google.com/view/p-s-40k/home",
        "Domain_1": "",
        "Domain_2": "",
        "Domain_3": "",
        "Domain_4": ""
    },
    "P.S. 041 Francis White": {
        "Latitude": 40.6601813,
        "Longitude": -73.90705321058172,
        "Grade": "0K,01,02,03,04,05,SE",
        "District": "23",
        "Borough": "Brooklyn",
        "School Website": "",
        "Domain_1": "",
        "Domain_2": "",
        "Domain_3": "",
        "Domain_4": ""
    },
    "P.S. 044 Marcus Garvey": {
        "Latitude": 40.6861818,
        "Longitude": -73.94116259619689,
        "Grade": "PK,0K,01,02,03,04,05,SE",
        "District": "13",
        "Borough": "Brooklyn",
        "School Website": "https://www.marcusgarveymagnet.org/",
        "Domain_1": "marcusgarveymagnet.org",
        "Domain_2": "marcusgarveymagnet.com",
        "Domain_3": "marcusgarveymagnet.edu",
        "Domain_4": "marcusgarveymagnet.net"
    },
    "P.S./I.S. 045 Horace E. Greene": {
        "Latitude": 40.686701799999994,
        "Longitude": -73.91033667385625,
        "Grade": "PK,0K,01,02,03,04,05,06,07,08,SE",
        "District": "32",
        "Borough": "Brooklyn",
        "School Website": "https://www.psis45khoraceegreeneschool.org/",
        "Domain_1": "psis45khoraceegreeneschool.org",
        "Domain_2": "psis45khoraceegreeneschool.com",
        "Domain_3": "psis45khoraceegreeneschool.edu",
        "Domain_4": "psis45khoraceegreeneschool.net"
    },
    "P.S. 046 Edward C. Blum": {
        "Latitude": 40.6945922,
        "Longitude": -73.97165866362695,
        "Grade": "PK,0K,01,02,03,04,05,SE",
        "District": "13",
        "Borough": "Brooklyn",
        "School Website": "https://www.ps46brooklyn.com/",
        "Domain_1": "ps46brooklyn.org",
        "Domain_2": "ps46brooklyn.com",
        "Domain_3": "ps46brooklyn.edu",
        "Domain_4": "ps46brooklyn.net"
    },
    "P.S. 048 Mapleton": {
        "Latitude": 40.62155325,
        "Longitude": -73.9872850401137,
        "Grade": "PK,0K,01,02,03,04,05,SE",
        "District": "20",
        "Borough": "Brooklyn",
        "School Website": "https://www.ps48mapletonschool.org/",
        "Domain_1": "ps48mapletonschool.org",
        "Domain_2": "ps48mapletonschool.com",
        "Domain_3": "ps48mapletonschool.edu",
        "Domain_4": "ps48mapletonschool.net"
    },
    "J.H.S. 050 John D. Wells": {
        "Latitude": 40.71186055,
        "Longitude": -73.9601832564185,
        "Grade": "06,07,08,SE",
        "District": "14",
        "Borough": "Brooklyn",
        "School Website": "https://ms50.org/",
        "Domain_1": "ms50.org",
        "Domain_2": "ms50.com",
        "Domain_3": "ms50.edu",
        "Domain_4": "ms50.net"
    },
    "M.S. 51 William Alexander": {
        "Latitude": 40.67218135,
        "Longitude": -73.98445164830235,
        "Grade": "06,07,08,SE",
        "District": "15",
        "Borough": "Brooklyn",
        "School Website": "",
        "Domain_1": "",
        "Domain_2": "",
        "Domain_3": "",
        "Domain_4": ""
    },
    "P.S. 052 Sheepshead Bay": {
        "Latitude": 40.5878793,
        "Longitude": -73.93984121122904,
        "Grade": "PK,0K,01,02,03,04,05,SE",
        "District": "22",
        "Borough": "Brooklyn",
        "School Website": "",
        "Domain_1": "",
        "Domain_2": "",
        "Domain_3": "",
        "Domain_4": ""
    },
    "P.S. K053": {
        "Latitude": 40.6605532,
        "Longitude": -73.9887578,
        "Grade": "0K,01,02,03,04,05,06,07,08,09,10,11,12,SE",
        "District": "15",
        "Borough": "Brooklyn",
        "School Website": "https://p53k.org/",
        "Domain_1": "p53k.org",
        "Domain_2": "p53k.com",
        "Domain_3": "p53k.edu",
        "Domain_4": "p53k.net"
    },
    "Detective Rafael Ramos": {
        "Latitude": 40.69265865,
        "Longitude": -73.9525150614117,
        "Grade": "PK,0K,01,02,03,04,05,SE",
        "District": "13",
        "Borough": "Brooklyn",
        "School Website": "https://www.ps54k.com/",
        "Domain_1": "ps54k.org",
        "Domain_2": "ps54k.com",
        "Domain_3": "ps54k.edu",
        "Domain_4": "ps54k.net"
    },
    "P.S. 056 Lewis H. Latimer": {
        "Latitude": 40.68427715,
        "Longitude": -73.96053616583004,
        "Grade": "PK,0K,01,02,03,04,05,SE",
        "District": "13",
        "Borough": "Brooklyn",
        "School Website": "https://www.ps56k.org/",
        "Domain_1": "ps56k.org",
        "Domain_2": "ps56k.com",
        "Domain_3": "ps56k.edu",
        "Domain_4": "ps56k.net"
    },
    "Whitelaw Reid Academy of Arts and Business": {
        "Latitude": 40.6913175,
        "Longitude": -73.9334866,
        "Grade": "06,07,08,SE",
        "District": "16",
        "Borough": "Brooklyn",
        "School Website": "",
        "Domain_1": "",
        "Domain_2": "",
        "Domain_3": "",
        "Domain_4": ""
    },
    "P.S. 058 The Carroll": {
        "Latitude": 40.680335,
        "Longitude": -73.99552423407575,
        "Grade": "PK,0K,01,02,03,04,05,SE",
        "District": "15",
        "Borough": "Brooklyn",
        "School Website": "https://www.ps58brooklyn.org/",
        "Domain_1": "ps58brooklyn.org",
        "Domain_2": "ps58brooklyn.com",
        "Domain_3": "ps58brooklyn.edu",
        "Domain_4": "ps58brooklyn.net"
    },
    "P.S. 059 The Dawn Best School": {
        "Latitude": 40.6975041,
        "Longitude": -73.94348646048749,
        "Grade": "PK,0K,01,02,03,04,05,SE",
        "District": "14",
        "Borough": "Brooklyn",
        "School Website": "https://www.ps59.org/",
        "Domain_1": "ps59.org",
        "Domain_2": "ps59.com",
        "Domain_3": "ps59.edu",
        "Domain_4": "ps59.net"
    },
    "M.S. 061 Dr. Gladstone H. Atwell": {
        "Latitude": 40.663657549999996,
        "Longitude": -73.9495083965952,
        "Grade": "06,07,08,SE",
        "District": "17",
        "Borough": "Brooklyn",
        "School Website": "https://www.ms61.net/",
        "Domain_1": "ms61.org",
        "Domain_2": "ms61.com",
        "Domain_3": "ms61.edu",
        "Domain_4": "ms61.net"
    },
    "J.H.S. 062 Ditmas": {
        "Latitude": 40.63816405,
        "Longitude": -73.97132481406734,
        "Grade": "06,07,08,SE",
        "District": "20",
        "Borough": "Brooklyn",
        "School Website": "https://sites.google.com/iditmas.org/ditmas-j-h-s-62/home",
        "Domain_1": "",
        "Domain_2": "",
        "Domain_3": "",
        "Domain_4": ""
    },
    "P.S. 065": {
        "Latitude": 40.686891450000005,
        "Longitude": -73.87837563158729,
        "Grade": "PK,0K,01,02,03,04,05,SE",
        "District": "19",
        "Borough": "Brooklyn",
        "School Website": "https://www.ps65k.com/",
        "Domain_1": "ps65k.org",
        "Domain_2": "ps65k.com",
        "Domain_3": "ps65k.edu",
        "Domain_4": "ps65k.net"
    },
    "P.S. 66": {
        "Latitude": 40.6486513,
        "Longitude": -73.90684318494091,
        "Grade": "PK,0K,01,02,03,04,05,06,07,08,SE",
        "District": "18",
        "Borough": "Brooklyn",
        "School Website": "https://psis66blue.org/",
        "Domain_1": "psis66blue.org",
        "Domain_2": "psis66blue.com",
        "Domain_3": "psis66blue.edu",
        "Domain_4": "psis66blue.net"
    },
    "P.S. 067 Charles A. Dorsey": {
        "Latitude": 40.6950782,
        "Longitude": -73.9779092,
        "Grade": "PK,0K,01,02,03,04,05,SE",
        "District": "13",
        "Borough": "Brooklyn",
        "School Website": "https://www.thedorseyschool.org/",
        "Domain_1": "thedorseyschool.org",
        "Domain_2": "thedorseyschool.com",
        "Domain_3": "thedorseyschool.edu",
        "Domain_4": "thedorseyschool.net"
    },
    "I.S. 068 Isaac Bildersee": {
        "Latitude": 40.635329150000004,
        "Longitude": -73.91092483909543,
        "Grade": "06,07,08,SE",
        "District": "18",
        "Borough": "Brooklyn",
        "School Website": "https://www.is68.org/",
        "Domain_1": "is68.org",
        "Domain_2": "is68.com",
        "Domain_3": "is68.edu",
        "Domain_4": "is68.net"
    },
    "P.S. 69 Vincent D. Grippo School": {
        "Latitude": 40.6323855,
        "Longitude": -74.0095225,
        "Grade": "0K,01,02,03,04,05,SE",
        "District": "20",
        "Borough": "Brooklyn",
        "School Website": "https://www.ps69k.org/",
        "Domain_1": "ps69k.org",
        "Domain_2": "ps69k.com",
        "Domain_3": "ps69k.edu",
        "Domain_4": "ps69k.net"
    },
    "Juan Morel Campos Secondary School": {
        "Latitude": 40.703832899999995,
        "Longitude": -73.95378415472399,
        "Grade": "06,07,08,09,10,11,12,SE",
        "District": "14",
        "Borough": "Brooklyn",
        "School Website": "https://www.juanmorelcampos.com/",
        "Domain_1": "juanmorelcampos.org",
        "Domain_2": "juanmorelcampos.com",
        "Domain_3": "juanmorelcampos.edu",
        "Domain_4": "juanmorelcampos.net"
    },
    "P.S. 075 Mayda Cortiella": {
        "Latitude": 40.693164499999995,
        "Longitude": -73.92114270572984,
        "Grade": "PK,0K,01,02,03,04,05,SE",
        "District": "32",
        "Borough": "Brooklyn",
        "School Website": "",
        "Domain_1": "",
        "Domain_2": "",
        "Domain_3": "",
        "Domain_4": ""
    },
    "P.S. K077": {
        "Latitude": 40.6788104,
        "Longitude": -73.9767438,
        "Grade": "0K,01,02,03,04,05,06,07,08,09,10,11,12,SE",
        "District": "13",
        "Borough": "Brooklyn",
        "School Website": "https://sites.google.com/view/p77k",
        "Domain_1": "",
        "Domain_2": "",
        "Domain_3": "",
        "Domain_4": ""
    },
    "J.H.S. 078 Roy H. Mann": {
        "Latitude": 40.6208356,
        "Longitude": -73.91318799395407,
        "Grade": "06,07,08,SE",
        "District": "22",
        "Borough": "Brooklyn",
        "School Website": "http://www.RoyHMann.com/",
        "Domain_1": "RoyHMann.org",
        "Domain_2": "RoyHMann.com",
        "Domain_3": "RoyHMann.edu",
        "Domain_4": "RoyHMann.net"
    },
    "P.S. 081 Thaddeus Stevens": {
        "Latitude": 40.69292515,
        "Longitude": -73.93435684218845,
        "Grade": "PK,0K,01,02,03,04,05,SE",
        "District": "16",
        "Borough": "Brooklyn",
        "School Website": "",
        "Domain_1": "",
        "Domain_2": "",
        "Domain_3": "",
        "Domain_4": ""
    },
    "P.S. 084 Jose De Diego": {
        "Latitude": 40.714944599999995,
        "Longitude": -73.9636886258322,
        "Grade": "PK,0K,01,02,03,04,05,06,07,08,SE",
        "District": "14",
        "Borough": "Brooklyn",
        "School Website": "https://www.ps84k.org/",
        "Domain_1": "ps84k.org",
        "Domain_2": "ps84k.com",
        "Domain_3": "ps84k.edu",
        "Domain_4": "ps84k.net"
    },
    "P.S. 086 The Irvington": {
        "Latitude": 40.7005989,
        "Longitude": -73.91779853620689,
        "Grade": "0K,01,02,03,04,05,SE",
        "District": "32",
        "Borough": "Brooklyn",
        "School Website": "https://www.ps86k.org/",
        "Domain_1": "ps86k.org",
        "Domain_2": "ps86k.com",
        "Domain_3": "ps86k.edu",
        "Domain_4": "ps86k.net"
    },
    "J.H.S. 088 Peter Rouget": {
        "Latitude": 40.6605532,
        "Longitude": -73.9887578,
        "Grade": "06,07,08,SE",
        "District": "15",
        "Borough": "Brooklyn",
        "School Website": "https://ms88.org/",
        "Domain_1": "ms88.org",
        "Domain_2": "ms88.com",
        "Domain_3": "ms88.edu",
        "Domain_4": "ms88.net"
    },
    "P.S. 089 Cypress Hills": {
        "Latitude": 40.6777282,
        "Longitude": -73.88669291516872,
        "Grade": "PK,0K,01,02,03,04,05,06,07,08,SE",
        "District": "19",
        "Borough": "Brooklyn",
        "School Website": "https://chcs89.org/",
        "Domain_1": "chcs89.org",
        "Domain_2": "chcs89.com",
        "Domain_3": "chcs89.edu",
        "Domain_4": "chcs89.net"
    },
    "P.S. 90 Edna Cohen School": {
        "Latitude": 40.5780941,
        "Longitude": -73.98014786215695,
        "Grade": "PK,0K,01,02,03,04,05,SE",
        "District": "21",
        "Borough": "Brooklyn",
        "School Website": "https://www.ps90coneyisland.org",
        "Domain_1": "ps90coneyisland.org",
        "Domain_2": "ps90coneyisland.com",
        "Domain_3": "ps90coneyisland.edu",
        "Domain_4": "ps90coneyisland.net"
    },
    "P.S. 091 The Albany Avenue School": {
        "Latitude": 40.661832149999995,
        "Longitude": -73.94022601283055,
        "Grade": "PK,0K,01,02,03,04,05,SE",
        "District": "17",
        "Borough": "Brooklyn",
        "School Website": "https://ps091albanyas.ss20.sharpschool.com/",
        "Domain_1": "ps091albanyas.org",
        "Domain_2": "ps091albanyas.com",
        "Domain_3": "ps091albanyas.edu",
        "Domain_4": "ps091albanyas.net"
    },
    "P.S. 092 Adrian Hegeman": {
        "Latitude": 40.6562148,
        "Longitude": -73.9540269,
        "Grade": "PK,0K,01,02,03,04,05,SE",
        "District": "17",
        "Borough": "Brooklyn",
        "School Website": "https://www.ps92k.com/",
        "Domain_1": "ps92k.org",
        "Domain_2": "ps92k.com",
        "Domain_3": "ps92k.edu",
        "Domain_4": "ps92k.net"
    },
    "P.S. 093 William H. Prescott": {
        "Latitude": 40.6790484,
        "Longitude": -73.94637036084616,
        "Grade": "PK,0K,01,02,03,04,05,SE",
        "District": "13",
        "Borough": "Brooklyn",
        "School Website": "https://www.ps93brooklyn.com/",
        "Domain_1": "ps93brooklyn.org",
        "Domain_2": "ps93brooklyn.com",
        "Domain_3": "ps93brooklyn.edu",
        "Domain_4": "ps93brooklyn.net"
    },
    "P.S. 094 The Henry Longfellow": {
        "Latitude": 40.64375015,
        "Longitude": -74.00857721646096,
        "Grade": "0K,01,02,03,04,05,SE",
        "District": "15",
        "Borough": "Brooklyn",
        "School Website": "https://www.ps94k.org/",
        "Domain_1": "ps94k.org",
        "Domain_2": "ps94k.com",
        "Domain_3": "ps94k.edu",
        "Domain_4": "ps94k.net"
    },
    "P.S. 095 The Gravesend": {
        "Latitude": 40.59575495,
        "Longitude": -73.974716141224,
        "Grade": "0K,01,02,03,04,05,06,07,08,SE",
        "District": "21",
        "Borough": "Brooklyn",
        "School Website": "https://www.ps95bk.org/",
        "Domain_1": "ps95bk.org",
        "Domain_2": "ps95bk.com",
        "Domain_3": "ps95bk.edu",
        "Domain_4": "ps95bk.net"
    },
    "I.S. 096 Seth Low": {
        "Latitude": 40.6077255,
        "Longitude": -73.9849061,
        "Grade": "06,07,08,SE",
        "District": "21",
        "Borough": "Brooklyn",
        "School Website": "https://www.sethlowis96.org/",
        "Domain_1": "sethlowis96.org",
        "Domain_2": "sethlowis96.com",
        "Domain_3": "sethlowis96.edu",
        "Domain_4": "sethlowis96.net"
    },
    "P.S. 97 The Highlawn": {
        "Latitude": 40.600838350000004,
        "Longitude": -73.98545956589473,
        "Grade": "PK,0K,01,02,03,04,05,SE",
        "District": "21",
        "Borough": "Brooklyn",
        "School Website": "https://www.ps97.org/",
        "Domain_1": "ps97.org",
        "Domain_2": "ps97.com",
        "Domain_3": "ps97.edu",
        "Domain_4": "ps97.net"
    },
    "I.S. 98 Bay Academy": {
        "Latitude": 40.58377285,
        "Longitude": -73.95422031017692,
        "Grade": "06,07,08,SE",
        "District": "21",
        "Borough": "Brooklyn",
        "School Website": "https://ny02200298.schoolwires.net/",
        "Domain_1": "ny02200298.org",
        "Domain_2": "ny02200298.com",
        "Domain_3": "ny02200298.edu",
        "Domain_4": "ny02200298.net"
    },
    "P.S. 099 Isaac Asimov": {
        "Latitude": 40.621436349999996,
        "Longitude": -73.96589061704037,
        "Grade": "PK,0K,01,02,03,04,05,06,07,08,SE",
        "District": "21",
        "Borough": "Brooklyn",
        "School Website": "https://www.ps99brooklyn.org/",
        "Domain_1": "ps99brooklyn.org",
        "Domain_2": "ps99brooklyn.com",
        "Domain_3": "ps99brooklyn.edu",
        "Domain_4": "ps99brooklyn.net"
    },
    "P.S. 100 The Coney Island School": {
        "Latitude": 40.5775924,
        "Longitude": -73.9711006,
        "Grade": "PK,0K,01,02,03,04,05,SE",
        "District": "21",
        "Borough": "Brooklyn",
        "School Website": "https://ps100kcom.myschooldesign.com/",
        "Domain_1": "ps100kcom.org",
        "Domain_2": "ps100kcom.com",
        "Domain_3": "ps100kcom.edu",
        "Domain_4": "ps100kcom.net"
    },
    "P.S. 101 The Verrazano": {
        "Latitude": 40.59773275510204,
        "Longitude": -73.99111502040816,
        "Grade": "PK,0K,01,02,03,04,05,SE",
        "District": "21",
        "Borough": "Brooklyn",
        "School Website": "https://ps101k.com/",
        "Domain_1": "ps101k.org",
        "Domain_2": "ps101k.com",
        "Domain_3": "ps101k.edu",
        "Domain_4": "ps101k.net"
    },
    "P.S. 102 The Bayview": {
        "Latitude": 40.63433445,
        "Longitude": -74.02931629264609,
        "Grade": "0K,01,02,03,04,05,SE",
        "District": "20",
        "Borough": "Brooklyn",
        "School Website": "http://www.ps102.org/",
        "Domain_1": "ps102.org",
        "Domain_2": "ps102.com",
        "Domain_3": "ps102.edu",
        "Domain_4": "ps102.net"
    },
    "P.S./I.S. 104 The Fort Hamilton School": {
        "Latitude": 40.61806785,
        "Longitude": -74.0287275101432,
        "Grade": "0K,01,02,03,04,05,06,07,08,SE",
        "District": "20",
        "Borough": "Brooklyn",
        "School Website": "",
        "Domain_1": "",
        "Domain_2": "",
        "Domain_3": "",
        "Domain_4": ""
    },
    "P.S. 105 The Blythebourne": {
        "Latitude": 40.6332537,
        "Longitude": -74.00380072830205,
        "Grade": "0K,01,02,03,04,05,SE",
        "District": "20",
        "Borough": "Brooklyn",
        "School Website": "https://www.ps105k.org/",
        "Domain_1": "ps105k.org",
        "Domain_2": "ps105k.com",
        "Domain_3": "ps105k.edu",
        "Domain_4": "ps105k.net"
    },
    "P.S. 106 Edward Everett Hale": {
        "Latitude": 40.69367215,
        "Longitude": -73.91268318152709,
        "Grade": "PK,0K,01,02,03,04,05,SE",
        "District": "32",
        "Borough": "Brooklyn",
        "School Website": "https://www.ps106k.org/",
        "Domain_1": "ps106k.org",
        "Domain_2": "ps106k.com",
        "Domain_3": "ps106k.edu",
        "Domain_4": "ps106k.net"
    },
    "P.S. 107 John W. Kimball": {
        "Latitude": 40.6629197,
        "Longitude": -73.98120431434774,
        "Grade": "PK,0K,01,02,03,04,05,SE",
        "District": "15",
        "Borough": "Brooklyn",
        "School Website": "https://www.ps107.org/",
        "Domain_1": "ps107.org",
        "Domain_2": "ps107.com",
        "Domain_3": "ps107.edu",
        "Domain_4": "ps107.net"
    },
    "P.S. 108 Sal Abbracciamento": {
        "Latitude": 40.6812771,
        "Longitude": -73.88430974819859,
        "Grade": "PK,0K,01,02,03,04,05,SE",
        "District": "19",
        "Borough": "Brooklyn",
        "School Website": "https://www.ps108k.org/",
        "Domain_1": "ps108k.org",
        "Domain_2": "ps108k.com",
        "Domain_3": "ps108k.edu",
        "Domain_4": "ps108k.net"
    },
    "P.S. 109": {
        "Latitude": 40.6363111,
        "Longitude": -73.9333948,
        "Grade": "PK,0K,01,02,03,04,05,06,07,08,SE",
        "District": "22",
        "Borough": "Brooklyn",
        "School Website": "https://sites.google.com/schools.nyc.gov/psis109brooklynnewyork/home",
        "Domain_1": "",
        "Domain_2": "",
        "Domain_3": "",
        "Domain_4": ""
    },
    "P.S. 110 The Monitor": {
        "Latitude": 40.723875449999994,
        "Longitude": -73.94203272077002,
        "Grade": "PK,0K,01,02,03,04,05,SE",
        "District": "14",
        "Borough": "Brooklyn",
        "School Website": "https://www.ps110k.org/",
        "Domain_1": "ps110k.org",
        "Domain_2": "ps110k.com",
        "Domain_3": "ps110k.edu",
        "Domain_4": "ps110k.net"
    },
    "P.S. 112 Lefferts Park": {
        "Latitude": 40.6194204,
        "Longitude": -74.00056235310998,
        "Grade": "PK,0K,01,02,03,04,05,SE",
        "District": "20",
        "Borough": "Brooklyn",
        "School Website": "https://sites.google.com/view/ps112/",
        "Domain_1": "",
        "Domain_2": "",
        "Domain_3": "",
        "Domain_4": ""
    },
    "M.S. 113 Ronald Edmonds Learning Center": {
        "Latitude": 40.68856045,
        "Longitude": -73.97144651452781,
        "Grade": "06,07,08,SE",
        "District": "13",
        "Borough": "Brooklyn",
        "School Website": "https://www.relc113bk.org/",
        "Domain_1": "relc113bk.org",
        "Domain_2": "relc113bk.com",
        "Domain_3": "relc113bk.edu",
        "Domain_4": "relc113bk.net"
    },
    "P.S. 114 Ryder Elementary": {
        "Latitude": 40.64274715,
        "Longitude": -73.90804035597857,
        "Grade": "PK,0K,01,02,03,04,05,SE",
        "District": "18",
        "Borough": "Brooklyn",
        "School Website": "https://sites.google.com/schools.nyc.gov/publicschool114",
        "Domain_1": "",
        "Domain_2": "",
        "Domain_3": "",
        "Domain_4": ""
    },
    "P.S. 115 Daniel Mucatel School": {
        "Latitude": 40.63485025,
        "Longitude": -73.8982132821514,
        "Grade": "PK,0K,01,02,03,04,05,SE",
        "District": "18",
        "Borough": "Brooklyn",
        "School Website": "https://www.ps115brooklyn.org/",
        "Domain_1": "ps115brooklyn.org",
        "Domain_2": "ps115brooklyn.com",
        "Domain_3": "ps115brooklyn.edu",
        "Domain_4": "ps115brooklyn.net"
    },
    "P.S. 116 Elizabeth L Farrell": {
        "Latitude": 40.698054850000005,
        "Longitude": -73.91658550299985,
        "Grade": "PK,0K,01,02,03,04,05,SE",
        "District": "32",
        "Borough": "Brooklyn",
        "School Website": "https://ps116klma.com/",
        "Domain_1": "ps116klma.org",
        "Domain_2": "ps116klma.com",
        "Domain_3": "ps116klma.edu",
        "Domain_4": "ps116klma.net"
    },
    "The Maurice Sendak Community School": {
        "Latitude": 40.67102405,
        "Longitude": -73.98776237084077,
        "Grade": "0K,01,02,03,04,05,SE",
        "District": "15",
        "Borough": "Brooklyn",
        "School Website": "https://www.mauricesendakcommunityschool.org/",
        "Domain_1": "mauricesendakcommunityschool.org",
        "Domain_2": "mauricesendakcommunityschool.com",
        "Domain_3": "mauricesendakcommunityschool.edu",
        "Domain_4": "mauricesendakcommunityschool.net"
    },
    "P.S. 119 Amersfort": {
        "Latitude": 40.6260482,
        "Longitude": -73.93883058405373,
        "Grade": "PK,0K,01,02,03,04,05,SE",
        "District": "22",
        "Borough": "Brooklyn",
        "School Website": "https://blog.ps119amersfort.com/",
        "Domain_1": "blog.org",
        "Domain_2": "blog.com",
        "Domain_3": "blog.edu",
        "Domain_4": "blog.net"
    },
    "P.S. 120 Carlos Tapia": {
        "Latitude": 40.70064215,
        "Longitude": -73.93783847045839,
        "Grade": "PK,0K,01,02,03,04,05,SE",
        "District": "14",
        "Borough": "Brooklyn",
        "School Website": "https://www.ps120k.org/",
        "Domain_1": "ps120k.org",
        "Domain_2": "ps120k.com",
        "Domain_3": "ps120k.edu",
        "Domain_4": "ps120k.net"
    },
    "P.S. 121 Nelson A. Rockefeller": {
        "Latitude": 40.6229106,
        "Longitude": -73.9788757,
        "Grade": "0K,01,02,03,04,05,06,07,08,SE",
        "District": "21",
        "Borough": "Brooklyn",
        "School Website": "https://www.publicschool121.org/",
        "Domain_1": "publicschool121.org",
        "Domain_2": "publicschool121.com",
        "Domain_3": "publicschool121.edu",
        "Domain_4": "publicschool121.net"
    },
    "Pathways in Technology Early College High School (P-Tech)": {
        "Latitude": 40.675168684210526,
        "Longitude": -73.93896863157894,
        "Grade": "09,10,11,12,SE",
        "District": "17",
        "Borough": "Brooklyn",
        "School Website": "",
        "Domain_1": "",
        "Domain_2": "",
        "Domain_3": "",
        "Domain_4": ""
    },
    "P.S. 123 Suydam": {
        "Latitude": 40.7039049,
        "Longitude": -73.9225745,
        "Grade": "PK,0K,01,02,03,04,05,SE",
        "District": "32",
        "Borough": "Brooklyn",
        "School Website": "https://www.ps123k.org/",
        "Domain_1": "ps123k.org",
        "Domain_2": "ps123k.com",
        "Domain_3": "ps123k.edu",
        "Domain_4": "ps123k.net"
    },
    "P.S. 124 Silas B. Dutcher": {
        "Latitude": 40.667807125,
        "Longitude": -73.9909695,
        "Grade": "PK,0K,01,02,03,04,05,SE",
        "District": "15",
        "Borough": "Brooklyn",
        "School Website": "https://www.ps124brooklyn.org/",
        "Domain_1": "ps124brooklyn.org",
        "Domain_2": "ps124brooklyn.com",
        "Domain_3": "ps124brooklyn.edu",
        "Domain_4": "ps124brooklyn.net"
    },
    "Success Academy Charter School - Bed Stuy 2": {
        "Latitude": 40.6975041,
        "Longitude": -73.94348646048749,
        "Grade": "0K,01,02,03,04,SE",
        "District": "14",
        "Borough": "Brooklyn",
        "School Website": "https://www.successacademies.org/",
        "Domain_1": "successacademies.org",
        "Domain_2": "successacademies.com",
        "Domain_3": "successacademies.edu",
        "Domain_4": "successacademies.net"
    },
    "John Ericsson Middle School 126": {
        "Latitude": 40.719763549999996,
        "Longitude": -73.94779234371214,
        "Grade": "06,07,08,SE",
        "District": "14",
        "Borough": "Brooklyn",
        "School Website": "https://ms126.org/",
        "Domain_1": "ms126.org",
        "Domain_2": "ms126.com",
        "Domain_3": "ms126.edu",
        "Domain_4": "ms126.net"
    },
    "P.S. 127 McKinley Park": {
        "Latitude": 40.62426595,
        "Longitude": -74.01877825,
        "Grade": "0K,01,02,03,04,05,SE",
        "District": "20",
        "Borough": "Brooklyn",
        "School Website": "http://www.mckinleypark127.org/",
        "Domain_1": "mckinleypark127.org",
        "Domain_2": "mckinleypark127.com",
        "Domain_3": "mckinleypark127.edu",
        "Domain_4": "mckinleypark127.net"
    }
}